[
    {
        "name": "Alberta",
        "type": "province",
        "latitude": "53.93327060",
        "longitude": "-116.57650350",
        "code": "AB"
    },
    {
        "name": "British Columbia",
        "type": "province",
        "latitude": "53.72666830",
        "longitude": "-127.64762050",
        "code": "BC"
    },
    {
        "name": "Manitoba",
        "type": "province",
        "latitude": "53.76086080",
        "longitude": "-98.81387620",
        "code": "MB"
    },
    {
        "name": "New Brunswick",
        "type": "province",
        "latitude": "46.56531630",
        "longitude": "-66.46191640",
        "code": "NB"
    },
    {
        "name": "Newfoundland and Labrador",
        "type": "province",
        "latitude": "53.13550910",
        "longitude": "-57.66043640",
        "code": "NL"
    },
    {
        "name": "Northwest Territories",
        "type": "territory",
        "latitude": "64.82554410",
        "longitude": "-124.84573340",
        "code": "NT"
    },
    {
        "name": "Nova Scotia",
        "type": "province",
        "latitude": "44.68198660",
        "longitude": "-63.74431100",
        "code": "NS"
    },
    {
        "name": "Nunavut",
        "type": "territory",
        "latitude": "70.29977110",
        "longitude": "-83.10757700",
        "code": "NU"
    },
    {
        "name": "Ontario",
        "type": "province",
        "latitude": "51.25377500",
        "longitude": "-85.32321400",
        "code": "ON"
    },
    {
        "name": "Prince Edward Island",
        "type": "province",
        "latitude": "46.51071200",
        "longitude": "-63.41681360",
        "code": "PE"
    },
    {
        "name": "Quebec",
        "type": "province",
        "latitude": "52.93991590",
        "longitude": "-73.54913610",
        "code": "QC"
    },
    {
        "name": "Saskatchewan",
        "type": "province",
        "latitude": "52.93991590",
        "longitude": "-106.45086390",
        "code": "SK"
    },
    {
        "name": "Yukon",
        "type": "territory",
        "latitude": "35.50672150",
        "longitude": "-97.76254410",
        "code": "YT"
    }
]
