[
    {
        "name": "Adjara",
        "type": null,
        "latitude": "41.60056260",
        "longitude": "42.06883830",
        "code": "AJ"
    },
    {
        "name": "Autonomous Republic of Abkhazia",
        "type": null,
        "latitude": "43.00155440",
        "longitude": "41.02340700",
        "code": "AB"
    },
    {
        "name": "Guria",
        "type": null,
        "latitude": "41.94427360",
        "longitude": "42.04580910",
        "code": "GU"
    },
    {
        "name": "Imereti",
        "type": null,
        "latitude": "42.23010800",
        "longitude": "42.90086640",
        "code": "IM"
    },
    {
        "name": "Kakheti",
        "type": null,
        "latitude": "41.64816020",
        "longitude": "45.69055540",
        "code": "KA"
    },
    {
        "name": "Khelvachauri Municipality",
        "type": null,
        "latitude": "41.58019260",
        "longitude": "41.66107420",
        "code": "29"
    },
    {
        "name": "Kvemo Kartli",
        "type": null,
        "latitude": "41.47918330",
        "longitude": "44.65604510",
        "code": "KK"
    },
    {
        "name": "Mtskheta-Mtianeti",
        "type": null,
        "latitude": "42.16821850",
        "longitude": "44.65060580",
        "code": "MM"
    },
    {
        "name": "Racha-Lechkhumi and Kvemo Svaneti",
        "type": null,
        "latitude": "42.67188730",
        "longitude": "43.05628360",
        "code": "RL"
    },
    {
        "name": "Samegrelo-Zemo Svaneti",
        "type": null,
        "latitude": "42.73522470",
        "longitude": "42.16893620",
        "code": "SZ"
    },
    {
        "name": "Samtskhe-Javakheti",
        "type": null,
        "latitude": "41.54792960",
        "longitude": "43.27764000",
        "code": "SJ"
    },
    {
        "name": "Senaki Municipality",
        "type": null,
        "latitude": "42.26963600",
        "longitude": "42.06568960",
        "code": "50"
    },
    {
        "name": "Shida Kartli",
        "type": null,
        "latitude": "42.07569440",
        "longitude": "43.95404620",
        "code": "SK"
    },
    {
        "name": "Tbilisi",
        "type": null,
        "latitude": "41.71513770",
        "longitude": "44.82709600",
        "code": "TB"
    }
]
