[
    {
        "name": "Ahafo",
        "type": "region",
        "latitude": "7.58213720",
        "longitude": "-2.54974630",
        "code": "AF"
    },
    {
        "name": "Ashanti",
        "type": "region",
        "latitude": "6.74704360",
        "longitude": "-1.52086240",
        "code": "AH"
    },
    {
        "name": "Bono",
        "type": "region",
        "latitude": "7.65000000",
        "longitude": "-2.50000000",
        "code": "BO"
    },
    {
        "name": "Bono East",
        "type": "region",
        "latitude": "7.75000000",
        "longitude": "-1.05000000",
        "code": "BE"
    },
    {
        "name": "Central",
        "type": "region",
        "latitude": "5.50000000",
        "longitude": "-1.00000000",
        "code": "CP"
    },
    {
        "name": "Eastern",
        "type": "region",
        "latitude": "6.50000000",
        "longitude": "-0.50000000",
        "code": "EP"
    },
    {
        "name": "Greater Accra",
        "type": "region",
        "latitude": "5.81428360",
        "longitude": "0.07467670",
        "code": "AA"
    },
    {
        "name": "North East",
        "type": "region",
        "latitude": "10.51666700",
        "longitude": "-0.36666700",
        "code": "NE"
    },
    {
        "name": "Northern",
        "type": "region",
        "latitude": "9.50000000",
        "longitude": "-1.00000000",
        "code": "NP"
    },
    {
        "name": "Oti",
        "type": "region",
        "latitude": "7.90000000",
        "longitude": "0.30000000",
        "code": "OT"
    },
    {
        "name": "Savannah",
        "type": "region",
        "latitude": "9.08333300",
        "longitude": "-1.81666700",
        "code": "SV"
    },
    {
        "name": "Upper East",
        "type": "region",
        "latitude": "10.70824990",
        "longitude": "-0.98206680",
        "code": "UE"
    },
    {
        "name": "Upper West",
        "type": "region",
        "latitude": "10.25297570",
        "longitude": "-2.14502450",
        "code": "UW"
    },
    {
        "name": "Volta",
        "type": "region",
        "latitude": "6.57813730",
        "longitude": "0.45023680",
        "code": "TV"
    },
    {
        "name": "Western",
        "type": "region",
        "latitude": "5.50000000",
        "longitude": "-2.50000000",
        "code": "WP"
    },
    {
        "name": "Western North",
        "type": "region",
        "latitude": "6.30000000",
        "longitude": "-2.80000000",
        "code": "WN"
    }
]
