[
    {
        "name": "Arkhangai Province",
        "type": null,
        "latitude": "47.89711010",
        "longitude": "100.72401650",
        "code": "073"
    },
    {
        "name": "Bayan-Ölgii Province",
        "type": null,
        "latitude": "48.39832540",
        "longitude": "89.66259150",
        "code": "071"
    },
    {
        "name": "Bayankhongor Province",
        "type": null,
        "latitude": "45.15267070",
        "longitude": "100.10736670",
        "code": "069"
    },
    {
        "name": "Bulgan Province",
        "type": null,
        "latitude": "48.96909130",
        "longitude": "102.88317230",
        "code": "067"
    },
    {
        "name": "Darkhan-Uul Province",
        "type": null,
        "latitude": "49.46484340",
        "longitude": "105.97459190",
        "code": "037"
    },
    {
        "name": "Dornod Province",
        "type": null,
        "latitude": "47.46581540",
        "longitude": "115.39271200",
        "code": "061"
    },
    {
        "name": "Dornogovi Province",
        "type": null,
        "latitude": "43.96538890",
        "longitude": "109.17734590",
        "code": "063"
    },
    {
        "name": "Dundgovi Province",
        "type": null,
        "latitude": "45.58227860",
        "longitude": "106.76442090",
        "code": "059"
    },
    {
        "name": "Govi-Altai Province",
        "type": null,
        "latitude": "45.45112270",
        "longitude": "95.85057660",
        "code": "065"
    },
    {
        "name": "Govisümber Province",
        "type": null,
        "latitude": "46.47627540",
        "longitude": "108.55706270",
        "code": "064"
    },
    {
        "name": "Khentii Province",
        "type": null,
        "latitude": "47.60812090",
        "longitude": "109.93728560",
        "code": "039"
    },
    {
        "name": "Khovd Province",
        "type": null,
        "latitude": "47.11296540",
        "longitude": "92.31107520",
        "code": "043"
    },
    {
        "name": "Khövsgöl Province",
        "type": null,
        "latitude": "50.22044840",
        "longitude": "100.32137680",
        "code": "041"
    },
    {
        "name": "Ömnögovi Province",
        "type": null,
        "latitude": "43.50002400",
        "longitude": "104.28611160",
        "code": "053"
    },
    {
        "name": "Orkhon Province",
        "type": null,
        "latitude": "49.00470500",
        "longitude": "104.30165270",
        "code": "035"
    },
    {
        "name": "Övörkhangai Province",
        "type": null,
        "latitude": "45.76243920",
        "longitude": "103.09170320",
        "code": "055"
    },
    {
        "name": "Selenge Province",
        "type": null,
        "latitude": "50.00592730",
        "longitude": "106.44341080",
        "code": "049"
    },
    {
        "name": "Sükhbaatar Province",
        "type": null,
        "latitude": "46.56531630",
        "longitude": "113.53808360",
        "code": "051"
    },
    {
        "name": "Töv Province",
        "type": null,
        "latitude": "47.21240560",
        "longitude": "106.41541000",
        "code": "047"
    },
    {
        "name": "Uvs Province",
        "type": null,
        "latitude": "49.64497070",
        "longitude": "93.27365760",
        "code": "046"
    },
    {
        "name": "Zavkhan Province",
        "type": null,
        "latitude": "48.23881470",
        "longitude": "96.07030190",
        "code": "057"
    }
]
