[
    {
        "name": "Akershus",
        "type": null,
        "latitude": "28.37042030",
        "longitude": "-81.54680580",
        "code": "02"
    },
    {
        "name": "Buskerud",
        "type": null,
        "latitude": "60.48460250",
        "longitude": "8.69837640",
        "code": "06"
    },
    {
        "name": "Finnmark",
        "type": null,
        "latitude": "70.48303880",
        "longitude": "26.01351070",
        "code": "20"
    },
    {
        "name": "Hedmark",
        "type": null,
        "latitude": "61.39673110",
        "longitude": "11.56273690",
        "code": "04"
    },
    {
        "name": "Hordaland",
        "type": null,
        "latitude": "60.27336740",
        "longitude": "5.72201940",
        "code": "12"
    },
    {
        "name": "Jan Mayen",
        "type": null,
        "latitude": "71.03181800",
        "longitude": "-8.29203460",
        "code": "22"
    },
    {
        "name": "Møre og Romsdal",
        "type": null,
        "latitude": "62.84068330",
        "longitude": "7.00714300",
        "code": "15"
    },
    {
        "name": "Nord-Trøndelag",
        "type": null,
        "latitude": "64.43707920",
        "longitude": "11.74629500",
        "code": "17"
    },
    {
        "name": "Nordland",
        "type": null,
        "latitude": "67.69305800",
        "longitude": "12.70739360",
        "code": "18"
    },
    {
        "name": "Oppland",
        "type": null,
        "latitude": "61.54227520",
        "longitude": "9.71663150",
        "code": "05"
    },
    {
        "name": "Oslo",
        "type": null,
        "latitude": "59.91386880",
        "longitude": "10.75224540",
        "code": "03"
    },
    {
        "name": "Østfold",
        "type": null,
        "latitude": "59.25582860",
        "longitude": "11.32790060",
        "code": "01"
    },
    {
        "name": "Rogaland",
        "type": null,
        "latitude": "59.14895440",
        "longitude": "6.01434320",
        "code": "11"
    },
    {
        "name": "Sogn og Fjordane",
        "type": null,
        "latitude": "61.55394350",
        "longitude": "6.33258790",
        "code": "14"
    },
    {
        "name": "Sør-Trøndelag",
        "type": null,
        "latitude": "63.01368230",
        "longitude": "10.34871360",
        "code": "16"
    },
    {
        "name": "Svalbard",
        "type": null,
        "latitude": "77.87497250",
        "longitude": "20.97518210",
        "code": "21"
    },
    {
        "name": "Telemark",
        "type": null,
        "latitude": "59.39139850",
        "longitude": "8.32112090",
        "code": "08"
    },
    {
        "name": "Troms",
        "type": null,
        "latitude": "69.81782420",
        "longitude": "18.78193650",
        "code": "19"
    },
    {
        "name": "Trøndelag",
        "type": null,
        "latitude": "63.54201250",
        "longitude": "10.93692670",
        "code": "50"
    },
    {
        "name": "Vest-Agder",
        "type": null,
        "latitude": "58.09990810",
        "longitude": "6.58698090",
        "code": "10"
    },
    {
        "name": "Vestfold",
        "type": null,
        "latitude": "59.17078620",
        "longitude": "10.11443550",
        "code": "07"
    }
]
