[
    {
        "name": "Agder",
        "type": "county",
        "latitude": "58.74069340",
        "longitude": "6.75315210",
        "code": "42"
    },
    {
        "name": "Innlandet",
        "type": "county",
        "latitude": "61.19357870",
        "longitude": "5.50832660",
        "code": "34"
    },
    {
        "name": "Jan Mayen",
        "type": "arctic region",
        "latitude": "71.03181800",
        "longitude": "-8.29203460",
        "code": "22"
    },
    {
        "name": "Møre og Romsdal",
        "type": "county",
        "latitude": "62.84068330",
        "longitude": "7.00714300",
        "code": "15"
    },
    {
        "name": "Nordland",
        "type": "county",
        "latitude": "67.69305800",
        "longitude": "12.70739360",
        "code": "18"
    },
    {
        "name": "Oslo",
        "type": "county",
        "latitude": "59.91386880",
        "longitude": "10.75224540",
        "code": "03"
    },
    {
        "name": "Rogaland",
        "type": "county",
        "latitude": "59.14895440",
        "longitude": "6.01434320",
        "code": "11"
    },
    {
        "name": "Svalbard",
        "type": "arctic region",
        "latitude": "77.87497250",
        "longitude": "20.97518210",
        "code": "21"
    },
    {
        "name": "Troms og Finnmark",
        "type": "county",
        "latitude": "69.77890670",
        "longitude": "18.99401840",
        "code": "54"
    },
    {
        "name": "Trøndelag",
        "type": "county",
        "latitude": "63.54201250",
        "longitude": "10.93692670",
        "code": "50"
    },
    {
        "name": "Vestfold og Telemark",
        "type": "county",
        "latitude": "59.41174820",
        "longitude": "7.76471750",
        "code": "38"
    },
    {
        "name": "Vestland",
        "type": "county",
        "latitude": "60.90694420",
        "longitude": "3.96270810",
        "code": "46"
    },
    {
        "name": "Viken",
        "type": "county",
        "latitude": "59.96530050",
        "longitude": "7.45051440",
        "code": "30"
    }
]
