[
    {
        "name": "Aileu municipality",
        "type": null,
        "latitude": "-8.70439940",
        "longitude": "125.60954740",
        "code": "AL"
    },
    {
        "name": "Ainaro Municipality",
        "type": null,
        "latitude": "-9.01131710",
        "longitude": "125.52200120",
        "code": "AN"
    },
    {
        "name": "Baucau Municipality",
        "type": null,
        "latitude": "-8.47143080",
        "longitude": "126.45759910",
        "code": "BA"
    },
    {
        "name": "Bobonaro Municipality",
        "type": null,
        "latitude": "-8.96554060",
        "longitude": "125.25879640",
        "code": "BO"
    },
    {
        "name": "Cova Lima Municipality",
        "type": null,
        "latitude": "-9.26503750",
        "longitude": "125.25879640",
        "code": "CO"
    },
    {
        "name": "Dili municipality",
        "type": null,
        "latitude": "-8.24496130",
        "longitude": "125.58766970",
        "code": "DI"
    },
    {
        "name": "Ermera District",
        "type": null,
        "latitude": "-8.75248020",
        "longitude": "125.39872940",
        "code": "ER"
    },
    {
        "name": "Lautém Municipality",
        "type": null,
        "latitude": "-8.36423070",
        "longitude": "126.90438450",
        "code": "LA"
    },
    {
        "name": "Liquiçá Municipality",
        "type": null,
        "latitude": "-8.66740950",
        "longitude": "125.25879640",
        "code": "LI"
    },
    {
        "name": "Manatuto District",
        "type": null,
        "latitude": "-8.51556080",
        "longitude": "126.01592550",
        "code": "MT"
    },
    {
        "name": "Manufahi Municipality",
        "type": null,
        "latitude": "-9.01454950",
        "longitude": "125.82799590",
        "code": "MF"
    },
    {
        "name": "Viqueque Municipality",
        "type": null,
        "latitude": "-8.85979180",
        "longitude": "126.36335160",
        "code": "VI"
    }
]
