[
    {
        "name": "An Giang",
        "type": null,
        "latitude": "10.52158360",
        "longitude": "105.12589550",
        "code": "44"
    },
    {
        "name": "Bà Rịa-Vũng Tàu",
        "type": null,
        "latitude": "10.54173970",
        "longitude": "107.24299760",
        "code": "43"
    },
    {
        "name": "Bắc Giang",
        "type": null,
        "latitude": "21.28199210",
        "longitude": "106.19747690",
        "code": "54"
    },
    {
        "name": "Bắc Kạn",
        "type": null,
        "latitude": "22.30329230",
        "longitude": "105.87600400",
        "code": "53"
    },
    {
        "name": "Bạc Liêu",
        "type": null,
        "latitude": "9.29400270",
        "longitude": "105.72156630",
        "code": "55"
    },
    {
        "name": "Bắc Ninh",
        "type": null,
        "latitude": "21.12144400",
        "longitude": "106.11105010",
        "code": "56"
    },
    {
        "name": "Bến Tre",
        "type": null,
        "latitude": "10.24335560",
        "longitude": "106.37555100",
        "code": "50"
    },
    {
        "name": "Bình Dương",
        "type": null,
        "latitude": "11.32540240",
        "longitude": "106.47701700",
        "code": "57"
    },
    {
        "name": "Bình Định",
        "type": null,
        "latitude": "14.16653240",
        "longitude": "108.90268300",
        "code": "31"
    },
    {
        "name": "Bình Phước",
        "type": null,
        "latitude": "11.75118940",
        "longitude": "106.72346390",
        "code": "58"
    },
    {
        "name": "Bình Thuận",
        "type": null,
        "latitude": "11.09037030",
        "longitude": "108.07207810",
        "code": "40"
    },
    {
        "name": "Cà Mau",
        "type": null,
        "latitude": "9.15267280",
        "longitude": "105.19607950",
        "code": "59"
    },
    {
        "name": "Cần Thơ",
        "type": null,
        "latitude": "10.03418510",
        "longitude": "105.72255070",
        "code": "CT"
    },
    {
        "name": "Cao Bằng",
        "type": null,
        "latitude": "22.63568900",
        "longitude": "106.25221430",
        "code": "04"
    },
    {
        "name": "Đà Nẵng",
        "type": null,
        "latitude": "16.05440680",
        "longitude": "108.20216670",
        "code": "DN"
    },
    {
        "name": "Đắk Lắk",
        "type": null,
        "latitude": "12.71001160",
        "longitude": "108.23775190",
        "code": "33"
    },
    {
        "name": "Đắk Nông",
        "type": null,
        "latitude": "12.26464760",
        "longitude": "107.60980600",
        "code": "72"
    },
    {
        "name": "Điện Biên",
        "type": null,
        "latitude": "21.80423090",
        "longitude": "103.10765250",
        "code": "71"
    },
    {
        "name": "Đồng Nai",
        "type": null,
        "latitude": "11.06863050",
        "longitude": "107.16759760",
        "code": "39"
    },
    {
        "name": "Đồng Tháp",
        "type": null,
        "latitude": "10.49379890",
        "longitude": "105.68817880",
        "code": "45"
    },
    {
        "name": "Gia Lai",
        "type": null,
        "latitude": "13.80789430",
        "longitude": "108.10937500",
        "code": "30"
    },
    {
        "name": "Hà Giang",
        "type": null,
        "latitude": "22.80255880",
        "longitude": "104.97844940",
        "code": "03"
    },
    {
        "name": "Hà Nam",
        "type": null,
        "latitude": "20.58351960",
        "longitude": "105.92299000",
        "code": "63"
    },
    {
        "name": "Hà Nội",
        "type": null,
        "latitude": "21.02776440",
        "longitude": "105.83415980",
        "code": "HN"
    },
    {
        "name": "Hà Tĩnh",
        "type": null,
        "latitude": "18.35595370",
        "longitude": "105.88774940",
        "code": "23"
    },
    {
        "name": "Hải Dương",
        "type": null,
        "latitude": "20.93734130",
        "longitude": "106.31455420",
        "code": "61"
    },
    {
        "name": "Hải Phòng",
        "type": null,
        "latitude": "20.84491150",
        "longitude": "106.68808410",
        "code": "HP"
    },
    {
        "name": "Hậu Giang",
        "type": null,
        "latitude": "9.75789800",
        "longitude": "105.64125270",
        "code": "73"
    },
    {
        "name": "Hồ Chí Minh",
        "type": null,
        "latitude": "10.82309890",
        "longitude": "106.62966380",
        "code": "SG"
    },
    {
        "name": "Hòa Bình",
        "type": null,
        "latitude": "20.68612650",
        "longitude": "105.31311850",
        "code": "14"
    },
    {
        "name": "Hưng Yên",
        "type": null,
        "latitude": "20.85257110",
        "longitude": "106.01699710",
        "code": "66"
    },
    {
        "name": "Khánh Hòa",
        "type": null,
        "latitude": "12.25850980",
        "longitude": "109.05260760",
        "code": "34"
    },
    {
        "name": "Kiên Giang",
        "type": null,
        "latitude": "9.82495870",
        "longitude": "105.12589550",
        "code": "47"
    },
    {
        "name": "Kon Tum",
        "type": null,
        "latitude": "14.34974030",
        "longitude": "108.00046060",
        "code": "28"
    },
    {
        "name": "Lai Châu",
        "type": null,
        "latitude": "22.38622270",
        "longitude": "103.47026310",
        "code": "01"
    },
    {
        "name": "Lâm Đồng",
        "type": null,
        "latitude": "11.57527910",
        "longitude": "108.14286690",
        "code": "35"
    },
    {
        "name": "Lạng Sơn",
        "type": null,
        "latitude": "21.85370800",
        "longitude": "106.76151900",
        "code": "09"
    },
    {
        "name": "Lào Cai",
        "type": null,
        "latitude": "22.48094310",
        "longitude": "103.97549590",
        "code": "02"
    },
    {
        "name": "Long An",
        "type": null,
        "latitude": "10.56071680",
        "longitude": "106.64976230",
        "code": "41"
    },
    {
        "name": "Nam Định",
        "type": null,
        "latitude": "20.43882250",
        "longitude": "106.16210530",
        "code": "67"
    },
    {
        "name": "Nghệ An",
        "type": null,
        "latitude": "19.23424890",
        "longitude": "104.92003650",
        "code": "22"
    },
    {
        "name": "Ninh Bình",
        "type": null,
        "latitude": "20.25061490",
        "longitude": "105.97445360",
        "code": "18"
    },
    {
        "name": "Ninh Thuận",
        "type": null,
        "latitude": "11.67387670",
        "longitude": "108.86295720",
        "code": "36"
    },
    {
        "name": "Phú Thọ",
        "type": null,
        "latitude": "21.26844300",
        "longitude": "105.20455730",
        "code": "68"
    },
    {
        "name": "Phú Yên",
        "type": null,
        "latitude": "13.08818610",
        "longitude": "109.09287640",
        "code": "32"
    },
    {
        "name": "Quảng Bình",
        "type": null,
        "latitude": "17.61027150",
        "longitude": "106.34874740",
        "code": "24"
    },
    {
        "name": "Quảng Nam",
        "type": null,
        "latitude": "15.53935380",
        "longitude": "108.01910200",
        "code": "27"
    },
    {
        "name": "Quảng Ngãi",
        "type": null,
        "latitude": "15.12138730",
        "longitude": "108.80441450",
        "code": "29"
    },
    {
        "name": "Quảng Ninh",
        "type": null,
        "latitude": "21.00638200",
        "longitude": "107.29251440",
        "code": "13"
    },
    {
        "name": "Quảng Trị",
        "type": null,
        "latitude": "16.74030740",
        "longitude": "107.18546790",
        "code": "25"
    },
    {
        "name": "Sóc Trăng",
        "type": null,
        "latitude": "9.60252100",
        "longitude": "105.97390490",
        "code": "52"
    },
    {
        "name": "Sơn La",
        "type": null,
        "latitude": "21.10222840",
        "longitude": "103.72891670",
        "code": "05"
    },
    {
        "name": "Tây Ninh",
        "type": null,
        "latitude": "11.33515540",
        "longitude": "106.10988540",
        "code": "37"
    },
    {
        "name": "Thái Bình",
        "type": null,
        "latitude": "20.44634710",
        "longitude": "106.33658280",
        "code": "20"
    },
    {
        "name": "Thái Nguyên",
        "type": null,
        "latitude": "21.56715590",
        "longitude": "105.82520380",
        "code": "69"
    },
    {
        "name": "Thanh Hóa",
        "type": null,
        "latitude": "19.80669200",
        "longitude": "105.78518160",
        "code": "21"
    },
    {
        "name": "Thừa Thiên-Huế",
        "type": null,
        "latitude": "16.46739700",
        "longitude": "107.59053260",
        "code": "26"
    },
    {
        "name": "Tiền Giang",
        "type": null,
        "latitude": "10.44933240",
        "longitude": "106.34205040",
        "code": "46"
    },
    {
        "name": "Trà Vinh",
        "type": null,
        "latitude": "9.81274100",
        "longitude": "106.29929120",
        "code": "51"
    },
    {
        "name": "Tuyên Quang",
        "type": null,
        "latitude": "21.77672460",
        "longitude": "105.22801960",
        "code": "07"
    },
    {
        "name": "Vĩnh Long",
        "type": null,
        "latitude": "10.23957400",
        "longitude": "105.95719280",
        "code": "49"
    },
    {
        "name": "Vĩnh Phúc",
        "type": null,
        "latitude": "21.36088050",
        "longitude": "105.54743730",
        "code": "70"
    },
    {
        "name": "Yên Bái",
        "type": null,
        "latitude": "21.71676890",
        "longitude": "104.89858780",
        "code": "06"
    }
]
